[
  {
    "count": 1238,
    "cities": [
      {
        "place_id": "city_4",
        "popular_location": [
          {
            "place_id": "oyo-locality-13782325",
            "is_popular": true,
            "priority": 1,
            "hotel_count": 240,
            "lat": 12.9279232,
            "lng": 77.6271078,
            "categories": ["Locality"],
            "popularity": 20985378.111365255,
            "conversion": 0.1782045446355286,
            "Lat": 12.9279232,
            "Lon": 77.6271078,
            "Location": "Koramangala"
          },
          {
            "place_id": "oyo-locality-11820494",
            "is_popular": true,
            "priority": 2,
            "hotel_count": 274,
            "lat": 12.976664,
            "lng": 77.571256,
            "categories": ["Popular Location"],
            "popularity": 17750062.859735698,
            "conversion": 0.17195844664848273,
            "Lat": 12.976664,
            "Lon": 77.571256,
            "Location": "Majestic"
          },
          {
            "place_id": "oyo-locality-17388194",
            "is_popular": true,
            "priority": 3,
            "hotel_count": 177,
            "lat": 12.959172,
            "lng": 77.697419,
            "categories": ["Popular Location"],
            "popularity": 14415162.859735698,
            "conversion": 0.17939650554660108,
            "Lat": 12.959172,
            "Lon": 77.697419,
            "Location": "Marathahalli"
          },
          {
            "place_id": "google_record_ChIJzathcfgUrjsRLW93ms0lxSQ",
            "is_popular": true,
            "priority": 4,
            "hotel_count": 231,
            "lat": 12.922637,
            "lng": 77.61744399999998,
            "categories": ["establishment", "point_of_interest", "landmark"],
            "popularity": 13968625,
            "conversion": 0.1758720803950542,
            "Lat": 12.922637,
            "Lon": 77.61744399999998,
            "Location": "Madiwala"
          },
          {
            "place_id": "850782880",
            "is_popular": true,
            "priority": 5,
            "hotel_count": 283,
            "lat": 12.978308,
            "lng": 77.638659,
            "categories": ["transport", "transport:rail", "transport:station"],
            "popularity": 15022716.741189722,
            "conversion": 0.16593032962330784,
            "Lat": 12.978308,
            "Lon": 77.638659,
            "Location": "Indiranagar"
          },
          {
            "place_id": "oyo-locality-11906053",
            "is_popular": false,
            "priority": 6,
            "hotel_count": 205,
            "lat": 12.9081357,
            "lng": 77.647608,
            "categories": ["Locality"],
            "popularity": 12954412.859735698,
            "conversion": 0.17738608917752213,
            "Lat": 12.9081357,
            "Lon": 77.647608,
            "Location": "Hsr Layout"
          },
          {
            "place_id": "7303386",
            "is_popular": false,
            "priority": 7,
            "hotel_count": 64,
            "lat": 13.20071,
            "lng": 77.70879,
            "categories": ["transport:air:airport"],
            "popularity": 13470500,
            "conversion": 0.1624217048801891,
            "Lat": 13.20071,
            "Lon": 77.70879,
            "Location": "Kempegowda International Airport"
          },
          {
            "place_id": "oyo-locality-19859270",
            "is_popular": false,
            "priority": 8,
            "hotel_count": 226,
            "lat": 13.03577,
            "lng": 77.597022,
            "categories": ["Popular Location"],
            "popularity": 9230862.859735698,
            "conversion": 0.18877962597961345,
            "Lat": 13.03577,
            "Lon": 77.597022,
            "Location": "Hebbal"
          },
          {
            "place_id": "oyo-locality-13228395",
            "is_popular": false,
            "priority": 9,
            "hotel_count": 63,
            "lat": 12.9698,
            "lng": 77.749947,
            "categories": ["Popular Location"],
            "popularity": 12902712.859735698,
            "conversion": 0.15171504912659906,
            "Lat": 12.9698,
            "Lon": 77.749947,
            "Location": "Whitefield"
          },
          {
            "place_id": "oyo-locality-12391813",
            "is_popular": false,
            "priority": 10,
            "hotel_count": 230,
            "lat": 12.925007,
            "lng": 77.593803,
            "categories": ["Popular Location"],
            "popularity": 10756712.859735698,
            "conversion": 0.16283219941539578,
            "Lat": 12.925007,
            "Lon": 77.593803,
            "Location": "Jayanagar"
          },
          {
            "place_id": "oyo-locality-15957661",
            "is_popular": false,
            "priority": 11,
            "hotel_count": 127,
            "lat": 13.0944536,
            "lng": 77.5860122,
            "categories": ["Locality"],
            "popularity": 8915962.859735698,
            "conversion": 0.17553055173237925,
            "Lat": 13.0944536,
            "Lon": 77.5860122,
            "Location": "Yelahanka"
          },
          {
            "place_id": "oyo-locality-17020569",
            "is_popular": false,
            "priority": 12,
            "hotel_count": 229,
            "lat": 12.910491,
            "lng": 77.585717,
            "categories": ["Popular Location"],
            "popularity": 8332062.8597356975,
            "conversion": 0.18045189111485688,
            "Lat": 12.910491,
            "Lon": 77.585717,
            "Location": "Jp Nagar"
          },
          {
            "place_id": "oyo-locality-18678118",
            "is_popular": false,
            "priority": 13,
            "hotel_count": 58,
            "lat": 12.8399389,
            "lng": 77.6770031,
            "categories": ["Locality"],
            "popularity": 9255134.839519821,
            "conversion": 0.16030171073547783,
            "Lat": 12.8399389,
            "Lon": 77.6770031,
            "Location": "Electronics City"
          },
          {
            "place_id": "oyo-locality-18713638",
            "is_popular": false,
            "priority": 14,
            "hotel_count": 315,
            "lat": 12.973906,
            "lng": 77.612872,
            "categories": ["Popular Location"],
            "popularity": 11940762.859735698,
            "conversion": 0.1315792512366538,
            "Lat": 12.973906,
            "Lon": 77.612872,
            "Location": "Mg Road"
          },
          {
            "place_id": "google_record_ChIJGVJUECQXrjsR-DB5Jgiof2k",
            "is_popular": false,
            "priority": 15,
            "hotel_count": 207,
            "lat": 13.0280047,
            "lng": 77.63997110000003,
            "categories": [
              "political",
              "sublocality",
              "sublocality_level_1",
              "locality"
            ],
            "popularity": 5533500,
            "conversion": 0.18557800682744774,
            "Lat": 13.0280047,
            "Lon": 77.63997110000003,
            "Location": "Kalyan Nagar"
          },
          {
            "place_id": "google_record_ChIJj0N-IWQ9rjsRxDxWEhcGs9E",
            "is_popular": false,
            "priority": 16,
            "hotel_count": 166,
            "lat": 13.0279661,
            "lng": 77.54091560000006,
            "categories": [
              "political",
              "sublocality",
              "sublocality_level_1",
              "locality"
            ],
            "popularity": 7183700,
            "conversion": 0.15996771955490277,
            "Lat": 13.0279661,
            "Lon": 77.54091560000006,
            "Location": "Yeshwanthpur"
          },
          {
            "place_id": "google_record_ChIJxfW4DPM9rjsRKsNTG-5p_QQ",
            "is_popular": false,
            "priority": 17,
            "hotel_count": 226,
            "lat": 12.9900578,
            "lng": 77.55249249999997,
            "categories": [
              "political",
              "sublocality",
              "sublocality_level_1",
              "locality"
            ],
            "popularity": 7803350,
            "conversion": 0.15227953353429435,
            "Lat": 12.9900578,
            "Lon": 77.55249249999997,
            "Location": "Rajaji Nagar"
          },
          {
            "place_id": "google_record_ChIJyz6lQ_k-rjsRhgqf4_1g1yI",
            "is_popular": false,
            "priority": 18,
            "hotel_count": 111,
            "lat": 12.9244286,
            "lng": 77.51136220000001,
            "categories": ["establishment", "point_of_interest", "landmark"],
            "popularity": 4557075,
            "conversion": 0.19010418554436598,
            "Lat": 12.9244286,
            "Lon": 77.51136220000001,
            "Location": "RR Nagar"
          },
          {
            "place_id": "oyo-locality-10679923",
            "is_popular": false,
            "priority": 19,
            "hotel_count": 158,
            "lat": 13.0040167,
            "lng": 77.6877765,
            "categories": ["Locality"],
            "popularity": 7497912.8597356975,
            "conversion": 0.13963432599149295,
            "Lat": 13.0040167,
            "Lon": 77.6877765,
            "Location": "Kr Puram"
          },
          {
            "place_id": "google_record_ChIJC1axSAoTrjsRSmGtnhDX6qM",
            "is_popular": false,
            "priority": 20,
            "hotel_count": 184,
            "lat": 12.9235953,
            "lng": 77.68070519999992,
            "categories": ["establishment", "point_of_interest", "landmark"],
            "popularity": 5947900,
            "conversion": 0.1482321736245824,
            "Lat": 12.9235953,
            "Lon": 77.68070519999992,
            "Location": "Bellandur"
          }
        ],
        "country_name": "India",
        "country_id": 1,
        "id": 4,
        "image_url": "https://images.oyoroomscdn.com/uploads/city_image/Screen Shot 2021-09-29 at 12.06.07 PM.png",
        "name": "Bangalore",
        "coordinates": {
          "lon": 77.5945627,
          "lat": 12.9715987
        }
      },
      {
        "place_id": "city_5",
        "popular_location": [
          {
            "place_id": "google_record_ChIJMbHfQRu25zsRMazdY3UpaKY",
            "is_popular": true,
            "priority": 1,
            "hotel_count": 191,
            "lat": 19.1154908,
            "lng": 72.87269519999995,
            "categories": [
              "political",
              "sublocality",
              "sublocality_level_1",
              "locality"
            ],
            "popularity": 44780600,
            "conversion": 0.16516041513555096,
            "Lat": 19.1154908,
            "Lon": 72.87269519999995,
            "Location": "Andheri East"
          },
          {
            "place_id": "google_record_ChIJexAZtTbB5zsRyA--VJe5UoQ",
            "is_popular": true,
            "priority": 2,
            "hotel_count": 45,
            "lat": 19.0770644,
            "lng": 72.99899249999999,
            "categories": [
              "political",
              "sublocality",
              "sublocality_level_1",
              "locality"
            ],
            "popularity": 33750500,
            "conversion": 0.14006404085082724,
            "Lat": 19.0770644,
            "Lon": 72.99899249999999,
            "Location": "Vashi"
          },
          {
            "place_id": "oyo-locality-17587787",
            "is_popular": true,
            "priority": 3,
            "hotel_count": 268,
            "lat": 19.186065,
            "lng": 72.975952,
            "categories": ["Popular Location"],
            "popularity": 37642812.8597357,
            "conversion": 0.10596250375895748,
            "Lat": 19.186065,
            "Lon": 72.975952,
            "Location": "Thane"
          },
          {
            "place_id": "oyo-locality-13936185",
            "is_popular": true,
            "priority": 4,
            "hotel_count": 177,
            "lat": 19.1363246,
            "lng": 72.82766,
            "categories": ["Popular Location"],
            "popularity": 16974162.859735698,
            "conversion": 0.15531272742726232,
            "Lat": 19.1363246,
            "Lon": 72.82766,
            "Location": "Andheri West"
          },
          {
            "place_id": "oyo-locality-13049721",
            "is_popular": true,
            "priority": 5,
            "hotel_count": 190,
            "lat": 19.113645,
            "lng": 72.8697339,
            "categories": ["Locality"],
            "popularity": 15326575,
            "conversion": 0.1546266498477168,
            "Lat": 19.113645,
            "Lon": 72.8697339,
            "Location": "Andheri"
          },
          {
            "place_id": "oyo-locality-19402435",
            "is_popular": false,
            "priority": 6,
            "hotel_count": 94,
            "lat": 19.018081,
            "lng": 72.843609,
            "categories": ["Popular Location"],
            "popularity": 23530562.859735698,
            "conversion": 0.12045946910824219,
            "Lat": 19.018081,
            "Lon": 72.843609,
            "Location": "Dadar"
          },
          {
            "place_id": "oyo-locality-16124841",
            "is_popular": false,
            "priority": 7,
            "hotel_count": 51,
            "lat": 18.989444,
            "lng": 73.122065,
            "categories": ["Popular Location"],
            "popularity": 24764587.859735698,
            "conversion": 0.11630744062147702,
            "Lat": 18.989444,
            "Lon": 73.122065,
            "Location": "Panvel"
          },
          {
            "place_id": "oyo-locality-12274045",
            "is_popular": false,
            "priority": 8,
            "hotel_count": 180,
            "lat": 19.055416,
            "lng": 72.839845,
            "categories": ["Popular Location"],
            "popularity": 18151237.859735698,
            "conversion": 0.12511283880115576,
            "Lat": 19.055416,
            "Lon": 72.839845,
            "Location": "Bandra"
          },
          {
            "place_id": "oyo-locality-19655630",
            "is_popular": false,
            "priority": 9,
            "hotel_count": 188,
            "lat": 19.0948958,
            "lng": 72.8865248,
            "categories": ["Popular Location"],
            "popularity": 9124937.859735698,
            "conversion": 0.17206333910882804,
            "Lat": 19.0948958,
            "Lon": 72.8865248,
            "Location": "Saki Naka"
          },
          {
            "place_id": "oyo-locality-18416974",
            "is_popular": false,
            "priority": 10,
            "hotel_count": 189,
            "lat": 19.1250615,
            "lng": 72.905049,
            "categories": ["Popular Location"],
            "popularity": 11412237.859735698,
            "conversion": 0.14586897952228972,
            "Lat": 19.1250615,
            "Lon": 72.905049,
            "Location": "Powai"
          },
          {
            "place_id": "google_record_ChIJ5ajjT5G25zsR1LlNnBBk8nM",
            "is_popular": false,
            "priority": 11,
            "hotel_count": 108,
            "lat": 19.1827551,
            "lng": 72.84015390000002,
            "categories": [
              "political",
              "sublocality",
              "sublocality_level_1",
              "locality"
            ],
            "popularity": 15668775,
            "conversion": 0.12360125984963405,
            "Lat": 19.1827551,
            "Lon": 72.84015390000002,
            "Location": "Malad West"
          },
          {
            "place_id": "oyo-locality-14336829",
            "is_popular": false,
            "priority": 12,
            "hotel_count": 180,
            "lat": 19.0856491,
            "lng": 72.9082207,
            "categories": ["Locality"],
            "popularity": 9277562.859735698,
            "conversion": 0.15500446206190205,
            "Lat": 19.0856491,
            "Lon": 72.9082207,
            "Location": "Ghatkopar"
          },
          {
            "place_id": "oyo-locality-17292894",
            "is_popular": false,
            "priority": 13,
            "hotel_count": 179,
            "lat": 19.065308,
            "lng": 72.879424,
            "categories": ["Popular Location"],
            "popularity": 9977112.859735698,
            "conversion": 0.14347922428026694,
            "Lat": 19.065308,
            "Lon": 72.879424,
            "Location": "Kurla"
          },
          {
            "place_id": "oyo-locality-16657778",
            "is_popular": false,
            "priority": 14,
            "hotel_count": 187,
            "lat": 19.0743583,
            "lng": 72.8708505,
            "categories": ["transport:rail"],
            "popularity": 14625287.859735698,
            "conversion": 0.11334493838275513,
            "Lat": 19.0743583,
            "Lon": 72.8708505,
            "Location": "Mumbai Cst Railway Station"
          },
          {
            "place_id": "oyo-locality-14091910",
            "is_popular": false,
            "priority": 15,
            "hotel_count": 42,
            "lat": 19.0330488,
            "lng": 73.0296625,
            "categories": ["Locality"],
            "popularity": 16713671.529733427,
            "conversion": 0.10567262996124485,
            "Lat": 19.0330488,
            "Lon": 73.0296625,
            "Location": "Navi Mumbai"
          },
          {
            "place_id": "oyo-locality-19151702",
            "is_popular": false,
            "priority": 16,
            "hotel_count": 165,
            "lat": 19.062577,
            "lng": 72.901253,
            "categories": ["Popular Location"],
            "popularity": 10944287.859735698,
            "conversion": 0.1302270325107986,
            "Lat": 19.062577,
            "Lon": 72.901253,
            "Location": "Chembur"
          },
          {
            "place_id": "google_record_ChIJG-qGC9_I5zsRlvK9G0vqfs4",
            "is_popular": false,
            "priority": 17,
            "hotel_count": 184,
            "lat": 19.0687893,
            "lng": 72.8702647,
            "categories": [
              "political",
              "sublocality",
              "sublocality_level_2",
              "locality"
            ],
            "popularity": 7397625,
            "conversion": 0.15466724410075325,
            "Lat": 19.0687893,
            "Lon": 72.8702647,
            "Location": "Bandra Kurla Complex"
          },
          {
            "place_id": "oyo-locality-10502335",
            "is_popular": false,
            "priority": 18,
            "hotel_count": 94,
            "lat": 19.0180435,
            "lng": 72.8436195,
            "categories": ["transport:rail"],
            "popularity": 12204262.859735698,
            "conversion": 0.11193133868034602,
            "Lat": 19.0180435,
            "Lon": 72.8436195,
            "Location": "Dadar Railway Station"
          },
          {
            "place_id": "google_record_ChIJRym9mVDI5zsRrqh0xGAazB4",
            "is_popular": false,
            "priority": 19,
            "hotel_count": 188,
            "lat": 19.0895595,
            "lng": 72.86561440000003,
            "categories": [
              "airport",
              "establishment",
              "point_of_interest",
              "landmark"
            ],
            "popularity": 6454800,
            "conversion": 0.15386131664361474,
            "Lat": 19.0895595,
            "Lon": 72.86561440000003,
            "Location": "Chhatrapati Shivaji International Airport"
          },
          {
            "place_id": "google_record_ChIJYaUX_lLC5zsR3iZti1wjxak",
            "is_popular": false,
            "priority": 20,
            "hotel_count": 46,
            "lat": 19.0300657,
            "lng": 73.03511379999998,
            "categories": [
              "political",
              "sublocality",
              "sublocality_level_1",
              "locality"
            ],
            "popularity": 12552375,
            "conversion": 0.10476510999445005,
            "Lat": 19.0300657,
            "Lon": 73.03511379999998,
            "Location": "CBD Belapur"
          }
        ],
        "country_name": "India",
        "country_id": 1,
        "id": 5,
        "image_url": "https://images.oyoroomscdn.com/uploads/city_image/mumbai(1).jpg",
        "name": "Mumbai",
        "coordinates": {
          "lon": 72.8776559,
          "lat": 19.0759837
        }
      },
      {
        "place_id": "city_2",
        "popular_location": [
          {
            "place_id": "7304193",
            "is_popular": true,
            "priority": 1,
            "hotel_count": 306,
            "lat": 28.54374,
            "lng": 77.12819,
            "categories": ["admin:city", "admin"],
            "popularity": 67197100,
            "conversion": 0.22410785958765284,
            "Lat": 28.54374,
            "Lon": 77.12819,
            "Location": "Mahipalpur"
          },
          {
            "place_id": "oyo-locality-14576106",
            "is_popular": true,
            "priority": 2,
            "hotel_count": 824,
            "lat": 28.641384,
            "lng": 77.218483,
            "categories": ["transport:rail"],
            "popularity": 49996862.8597357,
            "conversion": 0.18418266393706656,
            "Lat": 28.641384,
            "Lon": 77.218483,
            "Location": "New Delhi Railway Station"
          },
          {
            "place_id": "oyo-locality-19359750",
            "is_popular": true,
            "priority": 3,
            "hotel_count": 805,
            "lat": 28.64804,
            "lng": 77.21299,
            "categories": ["Locality"],
            "popularity": 55915500.33268508,
            "conversion": 0.1719904260376055,
            "Lat": 28.64804,
            "Lon": 77.21299,
            "Location": "Paharganj"
          },
          {
            "place_id": "345234441",
            "is_popular": true,
            "priority": 4,
            "hotel_count": 761,
            "lat": 28.643991,
            "lng": 77.188528,
            "categories": ["transport", "transport:rail", "transport:station"],
            "popularity": 48176311.322783396,
            "conversion": 0.17884659912081574,
            "Lat": 28.643991,
            "Lon": 77.188528,
            "Location": "Karol Bagh"
          },
          {
            "place_id": "7303827",
            "is_popular": true,
            "priority": 5,
            "hotel_count": 761,
            "lat": 28.64439,
            "lng": 77.18857,
            "categories": ["transport:rail"],
            "popularity": 19629268.32873243,
            "conversion": 0.2041400938205667,
            "Lat": 28.64439,
            "Lon": 77.18857,
            "Location": "Karol Bagh Metro Station"
          },
          {
            "place_id": "oyo-locality-16568193",
            "is_popular": false,
            "priority": 6,
            "hotel_count": 448,
            "lat": 28.5921401,
            "lng": 77.0460481,
            "categories": ["Locality"],
            "popularity": 38352887.8597357,
            "conversion": 0.13852825982641742,
            "Lat": 28.5921401,
            "Lon": 77.0460481,
            "Location": "Dwarka, New Delhi"
          },
          {
            "place_id": "oyo-locality-15332980",
            "is_popular": false,
            "priority": 7,
            "hotel_count": 306,
            "lat": 28.5561624,
            "lng": 77.0999578,
            "categories": ["transport:air:airport"],
            "popularity": 23564732.2417383,
            "conversion": 0.17008680154943218,
            "Lat": 28.5561624,
            "Lon": 77.0999578,
            "Location": "Indira Gandhi International Airport"
          },
          {
            "place_id": "663794722",
            "is_popular": false,
            "priority": 8,
            "hotel_count": 826,
            "lat": 28.630553,
            "lng": 77.277575,
            "categories": ["transport", "transport:rail", "transport:station"],
            "popularity": 26090030.551594913,
            "conversion": 0.15526461697798988,
            "Lat": 28.630553,
            "Lon": 77.277575,
            "Location": "Laxmi Nagar"
          },
          {
            "place_id": "oyo-locality-12199892",
            "is_popular": false,
            "priority": 9,
            "hotel_count": 864,
            "lat": 28.567695,
            "lng": 77.243272,
            "categories": ["Popular Location"],
            "popularity": 19490112.859735698,
            "conversion": 0.17621370516075902,
            "Lat": 28.567695,
            "Lon": 77.243272,
            "Location": "Lajpat Nagar"
          },
          {
            "place_id": "google_record_ChIJPYChRzoBDTkRL16Bd8SM--0",
            "is_popular": false,
            "priority": 10,
            "hotel_count": 212,
            "lat": 28.7494716,
            "lng": 77.05653329999996,
            "categories": [
              "political",
              "sublocality",
              "sublocality_level_1",
              "locality"
            ],
            "popularity": 32069300,
            "conversion": 0.13380086122161494,
            "Lat": 28.7494716,
            "Lon": 77.05653329999996,
            "Location": "Rohini"
          },
          {
            "place_id": "oyo-locality-17284014",
            "is_popular": false,
            "priority": 11,
            "hotel_count": 711,
            "lat": 28.523548,
            "lng": 77.2088954,
            "categories": ["Popular Location"],
            "popularity": 22415337.859735698,
            "conversion": 0.1516460211064397,
            "Lat": 28.523548,
            "Lon": 77.2088954,
            "Location": "Saket"
          },
          {
            "place_id": "oyo-locality-17846090",
            "is_popular": false,
            "priority": 12,
            "hotel_count": 466,
            "lat": 28.69899839999999,
            "lng": 77.1384174,
            "categories": ["Locality"],
            "popularity": 20546517.80956638,
            "conversion": 0.1515814965686786,
            "Lat": 28.69899839999999,
            "Lon": 77.1384174,
            "Location": "Pitampura"
          },
          {
            "place_id": "google_record_ChIJtcygKgUbDTkRgD3ISC0UIvk",
            "is_popular": false,
            "priority": 13,
            "hotel_count": 531,
            "lat": 28.5744479,
            "lng": 77.0651709,
            "categories": [
              "establishment",
              "point_of_interest",
              "subway_station",
              "transit_station",
              "landmark"
            ],
            "popularity": 20271650,
            "conversion": 0.15069460606223428,
            "Lat": 28.5744479,
            "Lon": 77.0651709,
            "Location": "Dwarka Sector 9"
          },
          {
            "place_id": "google_record_ChIJ136t6z0eDTkRVaSbIhoj83E",
            "is_popular": false,
            "priority": 14,
            "hotel_count": 578,
            "lat": 28.503685,
            "lng": 77.17848800000002,
            "categories": ["establishment", "point_of_interest", "landmark"],
            "popularity": 13454850,
            "conversion": 0.15503184593240932,
            "Lat": 28.503685,
            "Lon": 77.17848800000002,
            "Location": "Chattarpur"
          },
          {
            "place_id": "oyo-locality-12749564",
            "is_popular": false,
            "priority": 15,
            "hotel_count": 1570,
            "lat": 28.5889575,
            "lng": 77.2537045,
            "categories": ["transport:rail"],
            "popularity": 14581087.859735698,
            "conversion": 0.14166833246960586,
            "Lat": 28.5889575,
            "Lon": 77.2537045,
            "Location": "Hazrat Nizammudin Railway Station"
          },
          {
            "place_id": "oyo-locality-16148557",
            "is_popular": false,
            "priority": 16,
            "hotel_count": 846,
            "lat": 28.5374198,
            "lng": 77.2597274,
            "categories": ["Locality"],
            "popularity": 15633337.859735698,
            "conversion": 0.136394362304283,
            "Lat": 28.5374198,
            "Lon": 77.2597274,
            "Location": "Kalkaji"
          },
          {
            "place_id": "2833531928",
            "is_popular": false,
            "priority": 17,
            "hotel_count": 634,
            "lat": 28.651176,
            "lng": 77.124224,
            "categories": ["transport", "transport:rail", "transport:station"],
            "popularity": 13844246.479610138,
            "conversion": 0.14447841357148716,
            "Lat": 28.651176,
            "Lon": 77.124224,
            "Location": "Rajouri Garden"
          },
          {
            "place_id": "google_record_ChIJYcpVmnAEDTkRzoFC89x4PHM",
            "is_popular": false,
            "priority": 18,
            "hotel_count": 593,
            "lat": 28.66866719999999,
            "lng": 77.10194000000001,
            "categories": [
              "political",
              "sublocality",
              "sublocality_level_1",
              "locality"
            ],
            "popularity": 15121300,
            "conversion": 0.1374107456200738,
            "Lat": 28.66866719999999,
            "Lon": 77.10194000000001,
            "Location": "Paschim Vihar"
          },
          {
            "place_id": "google_record_ChIJD00Ga7oEDTkRPmD-EvfNCfY",
            "is_popular": false,
            "priority": 19,
            "hotel_count": 633,
            "lat": 28.621899,
            "lng": 77.08783849999998,
            "categories": [
              "political",
              "sublocality",
              "sublocality_level_1",
              "locality"
            ],
            "popularity": 15539300,
            "conversion": 0.13553860190141376,
            "Lat": 28.621899,
            "Lon": 77.08783849999998,
            "Location": "Janakpuri"
          },
          {
            "place_id": "347685176",
            "is_popular": false,
            "priority": 20,
            "hotel_count": 603,
            "lat": 28.62483,
            "lng": 77.065297,
            "categories": ["transport", "transport:rail", "transport:station"],
            "popularity": 13412099.629902903,
            "conversion": 0.14575745826134165,
            "Lat": 28.62483,
            "Lon": 77.065297,
            "Location": "Uttam Nagar East"
          }
        ],
        "country_name": "India",
        "country_id": 1,
        "id": 2,
        "image_url": "https://images.oyoroomscdn.com/uploads/city_image/delhi.jpg",
        "name": "Delhi",
        "coordinates": {
          "lon": 77.2217831,
          "lat": 28.6862738
        }
      },
      {
        "place_id": "city_12",
        "popular_location": [
          {
            "place_id": "google_record_EjBNb3VudCBSZCwgQW5uYSBTYWxhaSwgQ2hlbm5haSwgVGFtaWwgTmFkdSwgSW5kaWE",
            "is_popular": true,
            "priority": 1,
            "hotel_count": 156,
            "lat": 13.0650382,
            "lng": 80.26675469999998,
            "categories": ["route", "locality"],
            "popularity": 62543921.5297337,
            "conversion": 0.11669068617049183,
            "Lat": 13.0650382,
            "Lon": 80.26675469999998,
            "Location": "Mount Road"
          },
          {
            "place_id": "oyo-locality-14602812",
            "is_popular": true,
            "priority": 2,
            "hotel_count": 142,
            "lat": 13.0821888,
            "lng": 80.2755083,
            "categories": ["transport:rail"],
            "popularity": 24150862.859735698,
            "conversion": 0.16987380040910258,
            "Lat": 13.0821888,
            "Lon": 80.2755083,
            "Location": "Chennai Central Railway Station"
          },
          {
            "place_id": "oyo-locality-16201986",
            "is_popular": true,
            "priority": 3,
            "hotel_count": 69,
            "lat": 12.8615787,
            "lng": 80.242015,
            "categories": ["Locality"],
            "popularity": 22559262.859735698,
            "conversion": 0.15448320693263445,
            "Lat": 12.8615787,
            "Lon": 80.242015,
            "Location": "Ecr East Coast Road"
          },
          {
            "place_id": "oyo-locality-19648695",
            "is_popular": true,
            "priority": 4,
            "hotel_count": 193,
            "lat": 13.0405,
            "lng": 80.23369,
            "categories": ["Locality"],
            "popularity": 14429621.529733427,
            "conversion": 0.17744324451601157,
            "Lat": 13.0405,
            "Lon": 80.23369,
            "Location": "T Nagar"
          },
          {
            "place_id": "google_record_ChIJDerMNSFkUjoRaDfdN2THaGI",
            "is_popular": true,
            "priority": 5,
            "hotel_count": 170,
            "lat": 13.084141,
            "lng": 80.21510999999998,
            "categories": ["establishment", "point_of_interest", "landmark"],
            "popularity": 12901125,
            "conversion": 0.17655853054994208,
            "Lat": 13.084141,
            "Lon": 80.21510999999998,
            "Location": "Anna Nagar"
          },
          {
            "place_id": "oyo-locality-11166363",
            "is_popular": false,
            "priority": 6,
            "hotel_count": 171,
            "lat": 12.975971,
            "lng": 80.2212092,
            "categories": ["Locality"],
            "popularity": 10226787.859735698,
            "conversion": 0.17247192885307372,
            "Lat": 12.975971,
            "Lon": 80.2212092,
            "Location": "Velachery"
          },
          {
            "place_id": "oyo-locality-17372529",
            "is_popular": false,
            "priority": 7,
            "hotel_count": 142,
            "lat": 12.98339,
            "lng": 80.16772,
            "categories": ["transport:air:airport"],
            "popularity": 9665342.809566379,
            "conversion": 0.17635778414329195,
            "Lat": 12.98339,
            "Lon": 80.16772,
            "Location": "Chennai International Airport"
          },
          {
            "place_id": "oyo-locality-10489602",
            "is_popular": false,
            "priority": 8,
            "hotel_count": 173,
            "lat": 13.0687831,
            "lng": 80.1948019,
            "categories": ["Popular Location"],
            "popularity": 10321612.859735698,
            "conversion": 0.16711066219359072,
            "Lat": 13.0687831,
            "Lon": 80.1948019,
            "Location": "Koyambedu"
          },
          {
            "place_id": "oyo-locality-10067533",
            "is_popular": false,
            "priority": 9,
            "hotel_count": 211,
            "lat": 13.01024,
            "lng": 80.21565,
            "categories": ["Locality"],
            "popularity": 17696821.529733427,
            "conversion": 0.12524039232953582,
            "Lat": 13.01024,
            "Lon": 80.21565,
            "Location": "Guindy"
          },
          {
            "place_id": "oyo-locality-11194717",
            "is_popular": false,
            "priority": 10,
            "hotel_count": 86,
            "lat": 12.9009877,
            "lng": 80.2279301,
            "categories": ["Locality"],
            "popularity": 7235862.8597356975,
            "conversion": 0.1879177125999298,
            "Lat": 12.9009877,
            "Lon": 80.2279301,
            "Location": "Sholinganallur"
          },
          {
            "place_id": "256203093",
            "is_popular": false,
            "priority": 11,
            "hotel_count": 50,
            "lat": 12.926977,
            "lng": 80.120485,
            "categories": ["transport", "transport:rail", "transport:station"],
            "popularity": 11654899.346667115,
            "conversion": 0.1446164468592594,
            "Lat": 12.926977,
            "Lon": 80.120485,
            "Location": "Tambaram"
          },
          {
            "place_id": "oyo-locality-17819877",
            "is_popular": false,
            "priority": 12,
            "hotel_count": 92,
            "lat": 12.9673484,
            "lng": 80.1526888,
            "categories": ["Locality"],
            "popularity": 6247337.8597356975,
            "conversion": 0.18403906587611313,
            "Lat": 12.9673484,
            "Lon": 80.1526888,
            "Location": "Pallavaram"
          },
          {
            "place_id": "oyo-locality-19705463",
            "is_popular": false,
            "priority": 13,
            "hotel_count": 140,
            "lat": 13.03806,
            "lng": 80.1596,
            "categories": ["Locality"],
            "popularity": 8614950,
            "conversion": 0.15534652315971006,
            "Lat": 13.03806,
            "Lon": 80.1596,
            "Location": "Porur"
          },
          {
            "place_id": "oyo-locality-17553273",
            "is_popular": false,
            "priority": 14,
            "hotel_count": 191,
            "lat": 13.0521845,
            "lng": 80.211436,
            "categories": ["Popular Location"],
            "popularity": 9066062.859735698,
            "conversion": 0.1513722465133773,
            "Lat": 13.0521845,
            "Lon": 80.211436,
            "Location": "Vadapalani"
          },
          {
            "place_id": "oyo-locality-16917178",
            "is_popular": false,
            "priority": 15,
            "hotel_count": 173,
            "lat": 13.0610735,
            "lng": 80.2430583,
            "categories": ["Popular Location"],
            "popularity": 7806462.8597356975,
            "conversion": 0.15176574797800746,
            "Lat": 13.0610735,
            "Lon": 80.2430583,
            "Location": "Nungambakkam"
          },
          {
            "place_id": "oyo-locality-10535075",
            "is_popular": false,
            "priority": 16,
            "hotel_count": 100,
            "lat": 12.9283925,
            "lng": 80.2285892,
            "categories": ["Locality"],
            "popularity": 8238337.8597356975,
            "conversion": 0.12909468878693434,
            "Lat": 12.9283925,
            "Lon": 80.2285892,
            "Location": "Omr Old Mahabalipuram Road"
          },
          {
            "place_id": "oyo-locality-16497055",
            "is_popular": false,
            "priority": 17,
            "hotel_count": 154,
            "lat": 13.0779068,
            "lng": 80.2601105,
            "categories": ["Popular Location"],
            "popularity": 7182912.8597356975,
            "conversion": 0.1317642196076217,
            "Lat": 13.0779068,
            "Lon": 80.2601105,
            "Location": "Egmore"
          },
          {
            "place_id": "google_record_ChIJUQId3vtcUjoRcJI8igea_co",
            "is_popular": false,
            "priority": 18,
            "hotel_count": 101,
            "lat": 12.9416037,
            "lng": 80.23620959999994,
            "categories": [
              "political",
              "sublocality",
              "sublocality_level_1",
              "locality"
            ],
            "popularity": 4163100,
            "conversion": 0.17033772481083903,
            "Lat": 12.9416037,
            "Lon": 80.23620959999994,
            "Location": "Thoraipakkam"
          },
          {
            "place_id": "1008034389",
            "is_popular": false,
            "priority": 19,
            "hotel_count": 77,
            "lat": 12.951662,
            "lng": 80.140868,
            "categories": ["transport", "transport:rail", "transport:station"],
            "popularity": 4808339.287119879,
            "conversion": 0.15299466854917376,
            "Lat": 12.951662,
            "Lon": 80.140868,
            "Location": "Chromepet"
          },
          {
            "place_id": "google_record_ChIJBWsq8FZhUjoRxXJSs2vC6vY",
            "is_popular": false,
            "priority": 20,
            "hotel_count": 127,
            "lat": 13.0783724,
            "lng": 80.17407989999992,
            "categories": [
              "political",
              "sublocality",
              "sublocality_level_1",
              "locality"
            ],
            "popularity": 4246900,
            "conversion": 0.1625462642719786,
            "Lat": 13.0783724,
            "Lon": 80.17407989999992,
            "Location": "Mogappair"
          }
        ],
        "country_name": "India",
        "country_id": 1,
        "id": 12,
        "image_url": "https://images.oyoroomscdn.com/uploads/city_image/Chennai(1).jpg",
        "name": "Chennai",
        "coordinates": {
          "lon": 80.2707184,
          "lat": 13.0826802
        }
      }
    ]
  }
]
